{"type": "FeatureCollection", "id": "http://atlantgis.squirrel.link/data/Site_collection", "name": "Site Instances Collection", "features": [{"type": "Feature", "id": "http://atlantgis.squirrel.link/data/site/I", "name": "I (site:I)", "dateprops": [], "properties": {}, "geometry": {"type": "Point", "coordinates": [-14.68696255799825, 35.6089337422779], "crs": "4326"}}, {"type": "Feature", "id": "http://atlantgis.squirrel.link/data/site/D", "name": "D (site:D)", "dateprops": [], "properties": {}, "geometry": {"type": "Point", "coordinates": [-15.371528093603208, 35.469127902608804], "crs": "4326"}}, {"type": "Feature", "id": "http://atlantgis.squirrel.link/data/site/C", "name": "C (site:C)", "dateprops": [], "properties": {}, "geometry": {"type": "Point", "coordinates": [-15.217615254608273, 35.492712526968674], "crs": "4326"}}, {"type": "Feature", "id": "http://atlantgis.squirrel.link/data/site/F", "name": "F (site:F)", "dateprops": [], "properties": {}, "geometry": {"type": "Point", "coordinates": [-15.456620280793723, 35.706870795205106], "crs": "4326"}}, {"type": "Feature", "id": "http://atlantgis.squirrel.link/data/site/E", "name": "E (site:E)", "dateprops": [], "properties": {}, "geometry": {"type": "Point", "coordinates": [-15.518729450350849, 35.59317541219059], "crs": "4326"}}, {"type": "Feature", "id": "http://atlantgis.squirrel.link/data/site/B", "name": "B (site:B)", "dateprops": [], "properties": {}, "geometry": {"type": "Point", "coordinates": [-15.097823661232606, 35.617442563836114], "crs": "4326"}}, {"type": "Feature", "id": "http://atlantgis.squirrel.link/data/site/H", "name": "H (site:H)", "dateprops": [], "properties": {}, "geometry": {"type": "Point", "coordinates": [-14.930234892454264, 35.553705947902735], "crs": "4326"}}, {"type": "Feature", "id": "http://atlantgis.squirrel.link/data/site/A", "name": "A (site:A)", "dateprops": [], "properties": {}, "geometry": {"type": "Point", "coordinates": [-15.302889902401944, 35.59993416253471], "crs": "4326"}}, {"type": "Feature", "id": "http://atlantgis.squirrel.link/data/site/J", "name": "J (site:J)", "dateprops": [], "properties": {}, "geometry": {"type": "Point", "coordinates": [-14.83349156013882, 35.68217752456819], "crs": "4326"}}, {"type": "Feature", "id": "http://atlantgis.squirrel.link/data/site/G", "name": "G (site:G)", "dateprops": [], "properties": {}, "geometry": {"type": "Point", "coordinates": [-15.082751326646484, 35.499733072205636], "crs": "4326"}}], "numberMatched": 10, "numberReturned": 10, "bbox": [-15.518729450350849, 35.469127902608804, -14.68696255799825, 35.706870795205106], "crs": "http://www.opengis.net/def/crs/EPSG/0/4326"}